[{"lat":"25.743704","lng":"-100.207479","title":"ZONA NORTE (MONTERREY)","street":"Carretera Miguel Alemán, km 15, Col. El Milagro, C.P. 66634, Apodaca, NL.","telefono":"01( 81) 10 86 19 71","correo":"contacto@autoefectivo.com","horario":"<br>Lunes a viernes 08:00 h a 13:30 h y de 15:00 h a 17:00 h","encargado":"Juan Antonio Martínez Verdínez"},{"lat":"25.767233","lng":"-100.198756","title":"ZONA NORTE (MONTERREY II)","street":"Boulevard Carlos Salinas de Gortari, km 10, Col. Apodaca, C.P. 66600 Apodaca, Nuevo León, esquina con San Francisco.","telefono":"01( 81) 13 31 00 34 y 01( 81) 13 31 00 38","correo":"contacto@autoefectivo.com","horario":"<br>Lunes a viernes 08:00 h a 13:30 h y de 15:00 h a 17:00 h","encargado":"Adrián Hernández Salazar"},{"lat":"22.224126","lng":"-97.899789","title":"ZONA NORTE (TAMPICO)","street":"Francisco Villa s/n, Carretera Valles-Tampico, Km 0+400 (junto Dragas de la Armada), Col. Moralillo, C.P. 92018 Pánuco, Veracruz","telefono":"01(833) 2 62 20 59","correo":"contacto@autoefectivo.com","horario":"<br>Lunes a viernes 9:00 h a 18:00 h","encargado":"Mónica Luna Rodríguez"},{"lat":"32.546573","lng":"-116.955844","title":"ZONA NORTE (TIJUANA)","street":"Av. Internacional #7777-D, Col. Otay Aeropuerto, C.P. 22426 Tijuana, Baja California","telefono":"01 (664) 6 47 80 13","correo":"contacto@autoefectivo.com","horario":"<br>Lunes a viernes 08:00 h a 13:30 h y de 15:00 h a 17:00 h","encargado":"Juan Javier Rodríguez"},{"lat":"28.7692275","lng":"-106.1578681","title":"ZONA NORTE (CHIHUAHUA)","street":"Río de Uruguay #803, Riberas de Sacramento, Chihuahua, Chih. C.P. 31184","telefono":"01 (614) 4 99 40 40","correo":"contacto@autoefectivo.com","horario":"<br>Lunes a viernes 08:00 h a 13:30 h y de 15:00 h a 17:00 h","encargado":"Edgar Pacheco Márquez"},{"lat":"31.710216","lng":"-106.453164","title":"ZONA NORTE (CD. JUÁREZ )","street":"Av. Adolfo López Mateos #2234 Sur, Col. Jardines de San José, C.P. 32390, Ciudad Juárez, Chihuahua","telefono":"01 (656) 6 13 72 73","horario":"<br>Lunes a viernes 08:00 h a 13:30 h y de 15:00 h a 17:00 h","encargado":"Ricardo Álvarez Romero","correo":"contacto@autoefectivo.com"},{"lat":"27.4337456","lng":"-99.5180208","title":"ZONA NORTE (NUEVO LAREDO)","street":"Prolongación Guerrero #200, Col. Benito Juárez, C.P. 88274, Nuevo Laredo Tamaulipas","telefono":"01 (867) 7 17 50 39","horario":"<br>Lunes a viernes 08:00 h a 13:30 h y de 15:00 h a 17:00 h","encargado":"Edgar Reyes Cristóbal","correo":"contacto@autoefectivo.com"},{"lat":"25.558277","lng":"-103.469603","title":"ZONA NORTE (TORREÓN)","street":"Calle Guanacevi #250 (entre Cuatro Ciénagas y Lázaro Cárdenas), Parque Industrial Lagunero, C.P. 35070, Gómez Palacio, Dgo.","telefono":"01 (871) 7 50 18 23","horario":"<br>Lunes a viernes 08:00 h a 13:30 h y de 15:00 h a 17:00 h","encargado":"Rocío Torres Ortíz","correo":"contacto@autoefectivo.com"},{"lat":"22.124132","lng":"-100.976144","title":"ZONA NORTE (SAN LUIS POTOSÍ)","street":"Prolongación Xicotencatl #2367, Col. General I. Martínez, C.P. 78360 , San Luis Potosí","telefono":"01 (444) 84 29 126","horario":"<br>Lunes a viernes 08:00 h a 13:30 h y de 15:00 h a 17:00 h","encargado":"Erika Torres Torres","correo":"contacto@autoefectivo.com"},{"lat":"24.7376104","lng":"-107.4533526","title":"ZONA NOROESTE (CULIACÁN)","street":"Av. Federalismo #4975 Sur Poniente, Col. Barrancos (orillas del Canal), Ferias Ganadera","telefono":"01 (667) 3370267","correo":"contacto@autoefectivo.com","horario":"<br>Lunes a viernes 9:00 h a 18:00 h","encargado":"Juan Guillermo Soto Duarte"},{"lat":"24.062825","lng":"-110.305052","title":"ZONA NOROESTE (LA PAZ)","street":"Carretera a Los Cabos, km 9.5, Col. San Antonio del Zacatal, C.P. 23090, La Paz, Baja California Sur","telefono":"01 (612) 1 14 61 09","correo":"contacto@autoefectivo.com","horario":"<br>Lunes a viernes 08:00 h a 13:30 h y de 15:00 h a 17:00 h","encargado":"María del Rocío Grijalva Montelongo"},{"lat":"29.087318","lng":"-111.021214","title":"ZONA NOROESTE (HERMOSILLO)","street":"Blvd. Juan Navarrate #720, Fraccionamiento Real de Quiroga (casi esq. Blvd. Dr. Antonio Quiroga), C.P. 83224, Hermosillo, Son.","telefono":"01 (662) 1189 498","correo":"contacto@autoefectivo.com","horario":"<br>Lunes a viernes 08:00 h a 13:30 h y de 15:00 h a 17:00 h","encargado":"Joel Leobardo Puebla Varela"},{"lat":"32.652334","lng":"-115.353929","title":"ZONA NOROESTE (MEXICALI)","street":"Carretera al Aeropuerto km 9.5 s/n, Col. Mariano Abasolo, C.P. 21600 Mexicali, Baja California.","telefono":"01 (686) 5 64 83 56","correo":"contacto@autoefectivo.com","horario":"<br>Lunes a viernes 08:00 h a 13:30 h y de 15:00 h a 17:00 h","encargado":"Ricardo Álvarez Romero"},{"lat":"19.1105639","lng":"-98.3533111","title":"ZONA CENTRO (PUEBLA)","street":"Carretera Federal México - Puebla km 96, Col. San Mateo Cuanalá, C.P. 72640 Cholula, Puebla.","telefono":"01 (222) 2 21 62 88","correo":"contacto@autoefectivo.com","horario":"<br>Lunes a viernes 08:00 h a 13:30 h y de 15:00 h a 17:00 h","encargado":"Martín López Vázquez"},{"lat":"21.0489831","lng":"-101.5690832","title":"ZONA CENTRO (LEÓN)","street":"Carretera León-Silao km 8, Col. Los López, C.P. 37680","telefono":"01 (477) 1 67 83 96","correo":"contacto@autoefectivo.com","horario":"<br>Lunes a viernes 08:00 h a 13:30 h y de 15:00 h a 17:00 h","encargado":"Adrián Hernández Salazar"},{"lat":"20.568685","lng":"-103.370626","title":"ZONA CENTRO (GUADALAJARA)","street":"Calle Vicente Guerrero #350-A, Col. Santa Cruz del Valle Ejido de Toluquilla 45654 Tlaquepaque, Jalisco","telefono":"01 (33) 307 041 89","correo":"contacto@autoefectivo.com","horario":"<br>Lunes a viernes 08:00 h a 13:30 h y de 15:00 h a 17:00 h","encargado":"Luis Castro Vega"},{"lat":"19.3071662","lng":"-99.0520764","title":"ZONA CENTRO (TLÁHUAC)","street":"Porvenir #269, Col. Las arboledas, C.P. 13219","telefono":"01 (55) 5845-3752","correo":"contacto@autoefectivo.com","horario":"<br>Lunes a viernes 09:00 h a 18:00 h <br> sábado de 09:00 h a 14:00 h (Previa cita)","encargado":"Daniel García"},{"lat":"20.570703","lng":"-100.317430","title":"ZONA CENTRO (QUERÉTARO)","street":" Carretera Querétaro-México km 202-100, San Isidro Miranda, C.P. 76209, Querétato, Querétaro","telefono":"01 (442) 2 77 40 18","horario":"<br>Lunes a viernes 08:00 h a 13:30 h y de 15:00 h a 17:00 h","encargado":"Luciano Candelario Gallardo","correo":"contacto@autoefectivo.com"},{"lat":"19.281737","lng":"-99.492772","title":"ZONA CENTRO (TOLUCA)","street":" Calle Reforma s/n, Col. Capultitlán, Toluca, Estado de México, C.P. 50260","telefono":"01 (722) 1980112","horario":"<br>Lunes a viernes 08:00 h a 13:30 h y de 15:00 h a 17:00 h","encargado":"Carlos González Rivera","correo":"contacto@autoefectivo.com"},{"lat":"20.041401","lng":"-98.734346","title":"ZONA CENTRO (PACHUCA)","street":"Carretera Pachuca-Ciudad Sahagún km 7.5 (junto a la Agencia Volvo), C.P. 42186, Santa María La Calera, Hgo. ","telefono":"01 (771) 7 97 85 60","horario":"<br>Lunes a viernes 08:00 h a 13:30 h y de 15:00 h a 17:00 h","encargado":"Omar Vizuet Lugo","correo":"contacto@autoefectivo.com"},{"lat":"19.3236611","lng":"-99.2188476","title":"<b class='sanje'>ZONA CENTRO (SAN JERÓNIMO) Documentos y resguardo </b>","street":"Av. Contreras #246-304, Col. San Jerónimo Lídice, C.P. 10200","telefono":"55-95-09-26 y 55-95-66-54","horario":"<br>Lunes a viernes 08:15 h a 18:00 h","encargado":"Oliver Ramirez Carmona","correo":"contacto@autoefectivo.com"},{"lat":"19.678737","lng":"-99.189677","title":"ZONA CENTRO (CUAUTITLÁN)","street":"Av. Río Diamante s/n (antes Rancho El Sabino), Fraccionamiento Industrial Xhala, C.P. 54713, Cuautitlán Izcalli, Edo. de México.","telefono":"01 (55) 58 70 12 30","horario":"<br>Lunes a viernes 8:15 h a 18:00 h y sábado de 9:00 h a 14:00 h","encargado":"Felipe Caballero Segundo","correo":"contacto@autoefectivo.com"},{"lat":"21.055552","lng":"-89.631151","title":"ZONA SURESTE (MÉRIDA)","street":"Carretera México-Progreso km 10, #3500, Col. Tablaje Catastral C.P. 97300, Mérida, Yuc.","telefono":"01(999) 941 03 47","correo":"contacto@autoefectivo.com","horario":"<br>Lunes a viernes 08:00 h a 13:30 h y de 15:00 h a 17:00 h","encargado":"Arielle Cardoso"},{"lat":"17.988953","lng":"-92.97789","title":"ZONA SURESTE (VILLAHERMOSA)","street":"Carretera Villahermosa-Teapa km 18, Subteniente García, Playas de Rosario, C.P. 86291, Centro, Tabasco.","telefono":"01(993) 338 23 56","correo":"contacto@autoefectivo.com","horario":"<br>Lunes a viernes 08:00 h a 13:30 h y de 15:00 h a 17:00 h","encargado":"David de la Cruz"},{"lat":"20.992214","lng":"-86.854606","title":"ZONA SURESTE (CANCÚN)","street":"Av. Colosio s/n, Campestre Lol-be Alfredo V Bonfil (al lado del Motel Las Cerezas), C.P. 77560, Q.Roo","telefono":"01 (998) 8 82 02 76","correo":"contacto@autoefectivo.com","horario":"<br>Lunes a viernes 08:00 h a 13:30 h y de 15:00 h a 17:00 h","encargado":" Gerson Jair Jacome Sosa"},{"lat":"16.756843","lng":"-93.170704","title":"ZONA SURESTE (TUXTLA GUTIÉRREZ)","street":"Carretera Tuxtla-Ocozocoutla km 134 (a un lado de la Agencia Kenworth), C.P. 29130, Berriozábal, Chiapas.","telefono":"01 (961) 617 14 38","correo":"contacto@autoefectivo.com","horario":"<br>Lunes a viernes 08:00 h a 13:30 h y de 15:00 h a 17:00 h","encargado":"Carlos Pimentel Toledo"},{"lat":"16.912107","lng":"-99.793592","title":"ZONA SURESTE (ACAPULCO)","street":"Juan R. Escudero, Mz 48 Lt 19, Col. La Venta, C.P. 39713, Acapulco de Juárez, Guerrero.","telefono":"01 (744) 188 73 34","horario":"<br>Lunes a viernes 08:00 h a 13:30 h y de 15:00 h a 17:00 h","encargado":"Héctor Javier Cortés Barajas","correo":"contacto@autoefectivo.com"},{"lat":"19.165124","lng":"-96.220005","title":"ZONA SUR (VERACRUZ)","street":"Calle 2, Lt. 17 Mz. 4, Col. Industrial Bruno Pagliai, #94697, Veracruz   (frente a Planta Rotoplas)","telefono":"01 (22) 99 20 85 28","correo":"contacto@autoefectivo.com","horario":"<br>Lunes a viernes 08:00 h a 13:30 h y de 15:00 h a 17:00 h","encargado":"Ricardo Nolasco"},{"lat":"17.134506","lng":"-96.774364","title":"ZONA SUR (OAXACA)","street":"Calle Artículo 123, #180, Col. Granjas y Huertos de Brenamiel, C.P. 68285, San Jacinto Amilpas-Oaxaca","telefono":"01 (951) 206 14 29","correo":"contacto@autoefectivo.com","horario":"<br>Lunes a viernes 8:00 h a 13:30 h y de 15:00 h a 17:00 h","encargado":" Rubén García Gutiérrez"},{"lat":"18.893649","lng":"-99.131162","title":"ZONA SUR (CUERNAVACA)","street":"Carretera Federal Cuernavaca-Cuautla, km 14.5, Col. La Joya (a 100 m del puente de Acolapa), Yautepec, Morelos, C.P. 62730","telefono":" 01 (777) 309 87 33","horario":"<br>Lunes a viernes 08:00 h a 13:30 h y de 15:00 h a 17:00 h","encargado":"Cynthia Carolina Covarrubias Tovar","correo":"contacto@autoefectivo.com"}]